{"type":"FeatureCollection","features":[{"type":"Feature","properties":{"NOMBRE":"Nuestra Señora de la Natividad (Acanceh)"},"geometry":{"type":"Point","coordinates":[-89.450685,20.812283]}},{"type":"Feature","properties":{"NOMBRE":"Iglesia San Antonio de Padua (Tekit)"},"geometry":{"type":"Point","coordinates":[-89.332689,20.534195]}},{"type":"Feature","properties":{"NOMBRE":"Convento de San Miguel Arcángel (Maní)"},"geometry":{"type":"Point","coordinates":[-89.393054,20.388798]}},{"type":"Feature","properties":{"NOMBRE":"Parroquia de Nuestra Señora de la Asunción (Tecoh)"},"geometry":{"type":"Point","coordinates":[-89.474434,20.743396]}},{"type":"Feature","properties":{"NOMBRE":"Ex Convento y Parroquia de la Asunción (Mama)"},"geometry":{"type":"Point","coordinates":[-89.365437,20.477833]}},{"type":"Feature","properties":{"NOMBRE":"Templo de la Purísima Concepción (Chumayel)"},"geometry":{"type":"Point","coordinates":[-89.302378,20.429899]}},{"type":"Feature","properties":{"NOMBRE":"Ex Convento de San Pedro y San Pablo (Teabo)"},"geometry":{"type":"Point","coordinates":[-89.28359,20.399658]}},{"type":"Feature","properties":{"NOMBRE":"Templo del Santo Niño Jesús (Tihosuco)"},"geometry":{"type":"Point","coordinates":[-88.37373,20.196479]}},{"type":"Feature","properties":{"NOMBRE":"Templo de San José (Tepich)"},"geometry":{"type":"Point","coordinates":[-88.257024,20.242065]}},{"type":"Feature","properties":{"NOMBRE":"Iglesia de Nuestra Señora de Guadalupe (Xcabil)"},"geometry":{"type":"Point","coordinates":[-88.463611,20.165605]}},{"type":"Feature","properties":{"NOMBRE":"Iglesia de la Virgen de la Concepción (Huay Max)"},"geometry":{"type":"Point","coordinates":[-88.525004,20.041372]}},{"type":"Feature","properties":{"NOMBRE":"Iglesia de Nuestra Señora de la Candelaria (Sacalaca)"},"geometry":{"type":"Point","coordinates":[-88.595762,20.060234]}},{"type":"Feature","properties":{"NOMBRE":"Iglesia de la Virgen de la Asunción (Sacalaca)"},"geometry":{"type":"Point","coordinates":[-88.594888,20.062283]}},{"type":"Feature","properties":{"NOMBRE":"Iglesia de la Santa Cruz (Sabán)"},"geometry":{"type":"Point","coordinates":[-88.538471,20.034715]}}]}