{"type":"FeatureCollection","features":[{"type":"Feature","properties":{"NOMBRE":"Templo Mayor","CULTURA":"Mexica","DESCRIPCION":"El sitio Templo Mayor se localiza en el Centro Histórico de la Ciudad de México, fue fundado en el año 1325 por peregrinos provenientes de Aztlán. A quienes, según los relatos, Huitzilopochtli les indicó que debían asentarse donde encontraran un águila parada sobre un nopal, devorando una serpiente. En la época Prehispánica, el Templo Mayor fue el centro cívico y religioso de México Tenochtitlán, desde donde el imperio mexica expandió su dominio, cultura y cosmovisión durante más de 200 años.","LINK":"http://nemachtilo.mx/busqueda.php?c=NEMTe92791"},"geometry":{"type":"Point","coordinates":[-99.131434,19.434898]}},{"type":"Feature","properties":{"NOMBRE":"Tlatelolco","CULTURA":"Mexica, Tolteca","DESCRIPCION":"La fecha de fundación de este asentamiento aún es discutida, particularmente no se ha convenido si fue anterior o posterior a la de Tenochtitlán. Según los relatos, Huitzilopochtli entregó a los mexicas dos envoltorios llamados quimiles, uno de ellos contenía una piedra verde fina; el otro, dos palos de madera para encender el fuego nuevo en la tierra prometida. Los regalos dividieron a los peregrinos en dos grupos, quienes sostuvieron diversas confrontaciones a lo largo de su historia, el grupo que conservó los palos de madera fundó Tenochtitlán, y el que obtuvo la piedra o chalchihuite erigió Tlatelolco.","LINK":"http://nemachtilo.mx/busqueda.php?c=NEMTl92793"},"geometry":{"type":"Point","coordinates":[-99.137376,19.451135]}},{"type":"Feature","properties":{"NOMBRE":"Cerro de la Estrella","CULTURA":"Mexica","DESCRIPCION":"Este asentamiento fue construido sobre una elevación natural cuyo nombre prehispánico fue Huixchtecatl, que significa \"cerro de los huizaches\", hoy conocido como Cerro de la Estrella. En el año 1351, el sitio Cerro de la Estrella fue el escenario para la ceremonia del Fuego Nuevo, la cual se realizaba cada 52 años para evitar la muerte del Sol, y eludir la total oscuridad del universo; dicha ceremonia se llevó a cabo en los años 1351, 1403, 1455 y 1507, constituía el reinicio de los calendarios solar y ritual. ","LINK":"http://nemachtilo.mx/busqueda.php?c=NEMCe92714"},"geometry":{"type":"Point","coordinates":[-99.089722,19.343611]}},{"type":"Feature","properties":{"NOMBRE":"Cuicuilco","CULTURA":"Arcaica","DESCRIPCION":"El sitio Cuicuilco se localiza en el sur de la Ciudad de México. Su nombre deriva de una palabra náhuatl cuyo significado es \"lugar de ruegos o cantos\". La zona arqueológica de Cuicuilco es trascendental para la comprensión del desarrollo de las grandes culturas mesoamericanas. En ella se erigieron las primeras estructuras de piedra a gran escala.","LINK":"http://nemachtilo.mx/busqueda.php?c=NEMCu92762"},"geometry":{"type":"Point","coordinates":[-99.181702,19.301502]}},{"type":"Feature","properties":{"NOMBRE":"Nadzcáan","CULTURA":"Maya","DESCRIPCION":"Esta ciudad prehispánica cuenta con un largo periodo de ocupación, que abarca desde el año 1500 a.n.e. hasta el 1200 d.n.e. Durante esta época mantuvo una gran vinculación con otros importantes asentamientos de la región del Petén.","LINK":"http://nemachtilo.mx/busqueda.php?c=NEMNa4311"},"geometry":{"type":"Point","coordinates":[-89.8494,18.605916]}},{"type":"Feature","properties":{"NOMBRE":"Calakmul","CULTURA":"Maya","DESCRIPCION":"La zona arqueológica de Calakmul es la más importante de todo el estado de Campeche, Se localiza 310 km al sur de la capital, dentro de la Reserva de la Biósfera de Calakmul, muy cerca del Petén. La interpretación de los jeroglíficos, presentes en sus numerosas estelas, da cuenta de la intensa disputa que Calakmul sostuvo con Tikal y Palenque por el dominio de la región.","LINK":"http://nemachtilo.mx/busqueda.php?c=NEMCa4312"},"geometry":{"type":"Point","coordinates":[-89.810243,18.105448]}},{"type":"Feature","properties":{"NOMBRE":"Kanki","CULTURA":"Maya","DESCRIPCION":"La zona arqueológica Kankí se localiza en el municipio de Tenabo, en el estado de Campeche. El nombre del sitio alude a un arbusto silvestre con flores color amarillo que abunda en el norte de Campeche. Se trata de un asentamiento construido en estilo Puuc que destaca entre la densa vegetación.","LINK":"http://nemachtilo.mx/busqueda.php?c=NEMKa4293"},"geometry":{"type":"Point","coordinates":[-90.111651,19.99822]}},{"type":"Feature","properties":{"NOMBRE":"Xcalumkin","CULTURA":"Maya","DESCRIPCION":"El significado de su nombre ha sido interpretado como \"suelo fértil expuesto al Sol\" o \"ventana por donde entra el Sol\". El sitio muestra un desarrollo arquitectónico estilo Puuc. Está conformado por varias estructuras, entre las cuales destaca el edificio conocido como Palacio de los Cilindros, es el más alto del sitio y contó con diez habitaciones.","LINK":"http://nemachtilo.mx/busqueda.php?c=NEMXc4264"},"geometry":{"type":"Point","coordinates":[-90.113611,20.181944]}},{"type":"Feature","properties":{"NOMBRE":"Balamkú","CULTURA":"Maya","DESCRIPCION":"La zona arqueológica de Balamkú se localiza en el municipio de Calakmul, en el sureste del estado de Campeche. Se encuentra dentro de la Reserva de la Biósfera de Calakmul, al norte del poblado Conhuas. El nombre del sitio se deriva del maya y significa \"Templo del jaguar\", en alusión al jaguar representado en un friso de estuco modelado y policromado que corona una de las estructuras del llamado Grupo Central.","LINK":"http://nemachtilo.mx/busqueda.php?c=NEMBa4315"},"geometry":{"type":"Point","coordinates":[-89.945278,18.558889]}},{"type":"Feature","properties":{"NOMBRE":"Chunhuhub","CULTURA":"Maya","DESCRIPCION":"La zona arqueológica de Chunhuhub se localiza en el municipio de Hopelchén, en el estado de Campeche.Su nombre ha sido interpretado de dos formas diferentes ya que el vocablo huhub hace referencia a dos distintos significados, \"junto al caracol\" o \"raíz del árbol Huhub\". Entre los edificios de este sitio, destaca El Palacio o Estructura I, el cual presenta dos niveles con 13 aposentos abovedados.","LINK":"http://nemachtilo.mx/busqueda.php?c=NEMCh4276"},"geometry":{"type":"Point","coordinates":[-89.859444,20.160278]}},{"type":"Feature","properties":{"NOMBRE":"Santa Rosa Xtampak","CULTURA":"Maya","DESCRIPCION":"Durante la época Prehispánica, esta región del estado fue el área intermedia entre los pueblos mayas establecidos en el centro de la Península de Yucatán, las Tierras Bajas Mayas y la región colindante con el Petén guatemalteco. Las primeras evidencias de ocupación humana en el sitio Santa Rosa Xtampak datan del Preclásico Tardío, entre el 400 a.n.e. y el 200 d.n.e.","LINK":"http://nemachtilo.mx/busqueda.php?c=NEMSa4277"},"geometry":{"type":"Point","coordinates":[-89.598163,19.770329]}},{"type":"Feature","properties":{"NOMBRE":"Hochob","CULTURA":"Maya Chenes","DESCRIPCION":"El sitio de Hochob se localiza en el municipio Hopelchén, en el estado de Campeche. Su nombre proviene del maya y significa \"lugar donde se guardan las mazorcas de maíz\". Este asentamiento fue erigido sobre una colina de aproximadamente 30 m de altura, en cuya cima se llevaron a cabo nivelaciones, consiguiendo una plataforma de 200 m de largo y 50 m de ancho.","LINK":"http://nemachtilo.mx/busqueda.php?c=NEMHo4279"},"geometry":{"type":"Point","coordinates":[-89.771355,19.407999]}},{"type":"Feature","properties":{"NOMBRE":"Edzná","CULTURA":"Maya","DESCRIPCION":"Se trata de un asentamiento fundado por los itzaes, una etnia maya originaria de Guatemala, trascendental para el desarrollo de dicha cultura en la Península de Yucatán. Las evidencias encontradas en el sitio Edzná, o \"Casa de los Itzáes\", señalan que su ocupación comenzó cerca del año 600 a.n.e., como un pequeño asentamiento; no obstante, por medio de la agricultura, consolidó su desarrollo durante los siguientes años.","LINK":"http://nemachtilo.mx/busqueda.php?c=NEMEd42311"},"geometry":{"type":"Point","coordinates":[-90.230278,19.596667]}},{"type":"Feature","properties":{"NOMBRE":"Dzibilnocac","CULTURA":"Maya","DESCRIPCION":"Su nombre proviene del maya yucateco y ha sido interpretado como \"bóveda pintada o con escritura\", en alusión a las inscripciones con que fueron decorados algunos cuartos y escalinatas. Este asentamiento prehispánico se encuentra distribuido en un área de 1.32 km², está conformado por diversas estructuras como montículos, pirámides, plataformas, edificios abovedados y habitacionales.","LINK":"http://nemachtilo.mx/busqueda.php?c=NEMDz42712"},"geometry":{"type":"Point","coordinates":[-89.594604,19.578017]}},{"type":"Feature","properties":{"NOMBRE":"Becán","CULTURA":"Maya","DESCRIPCION":"El sitio está inscrito en la región denominada Río Bec, cuyo estilo arquitectónico se caracteriza por la presencia de grandes paneles en damero o tablero de ajedrez, templos aparentes, además de tener torres altas y angostas en los templos principales, a las cuales se asciende por escalinatas.","LINK":"http://nemachtilo.mx/busqueda.php?c=NEMBe43113"},"geometry":{"type":"Point","coordinates":[-89.467704,18.518112]}},{"type":"Feature","properties":{"NOMBRE":"El Tabasqueño","CULTURA":"Maya Chenes","DESCRIPCION":"Se trata de uno de los asentamientos que más aportaciones ha dado al conocimiento de la arquitectura y estética maya de la región. Con base en las exploraciones, los arqueólogos consideran que este sitio fue fundado por mayas chenes a principios del Clásico Tardío, alrededor del año 650 d.n.e. ","LINK":"http://nemachtilo.mx/busqueda.php?c=NEMTa42714"},"geometry":{"type":"Point","coordinates":[-89.791405,19.49659]}},{"type":"Feature","properties":{"NOMBRE":"Chicanná","CULTURA":"Maya","DESCRIPCION":"El nombre del sitio está relacionado con el enorme mascarón que existe en la fachada principal de la Estructura II, relacionado con el Monstruo de la Tierra. Chicanná se traduce como \"La casa de la boca de la serpiente\". Con base en su desarrollo constructivo y su compleja ornamentación, los arqueólogos señalan que debió tratarse de un centro de élite de Río Bec que, junto con Becán, formó parte de una importante ruta comercial que se extendió desde el Golfo de México hasta el sur de Quintana Roo.","LINK":"http://nemachtilo.mx/busqueda.php?c=NEMCh43115"},"geometry":{"type":"Point","coordinates":[-89.486289,18.507063]}},{"type":"Feature","properties":{"NOMBRE":"El Tigre","CULTURA":"Maya","DESCRIPCION":"Esta zona arqueológica ha sido relacionada con la provincia prehispánica descrita por algunos europeos, conocida como Acalan-Tixchel, cuyo nombre significa \"lugar de canoas\". Su ubicación, en la ribera del Río Candelaria, convirtió a este sitio en el principal centro comercial y político de una provincia conformada por al menos 76 pueblos.","LINK":"http://nemachtilo.mx/busqueda.php?c=NEMEl43216"},"geometry":{"type":"Point","coordinates":[-90.836875,18.121002]}},{"type":"Feature","properties":{"NOMBRE":"El Hormiguero","CULTURA":"Maya Petén","DESCRIPCION":"La zona arqueológica Hormiguero se localiza en el municipio de Champotón, en el estado de Campeche. Se trata de un asentamiento cuyo estilo arquitectónico corresponde a Río Bec. El sitio está integrado por tres complejos principales, Sur, Central y Norte, alrededor de los cuales se aprecian recintos ceremoniales y diversas estructuras que conforman conjuntos habitacionales.","LINK":"http://nemachtilo.mx/busqueda.php?c=NEMHo42517"},"geometry":{"type":"Point","coordinates":[-89.492879,18.409985]}},{"type":"Feature","properties":{"NOMBRE":"Tohcok","CULTURA":"Maya","DESCRIPCION":"Su nombre está formado por la palabra Toh, 'verdadero', y se debate si se refiere a alguno de los vocablos mayas: K' ok' o Kok, que significan 'medida o ruiseñor', respectivamente. Algunos especialistas consideran que la segunda hipótesis podría hacer alusión al mirlo pardo, una pequeña ave de plumaje marrón que habita la región y se distingue por su agradable canto.","LINK":"http://nemachtilo.mx/busqueda.php?c=NEMTo42710"},"geometry":{"type":"Point","coordinates":[-89.875782,19.770446]}},{"type":"Feature","properties":{"NOMBRE":"Xpuhil","CULTURA":"Maya","DESCRIPCION":"La zona arqueológica Xpuhil se localiza en el municipio de Calakmul, en el estado de Campeche, muy cerca de la localidad homónima. El nombre del sitio se deriva de la palabra maya Xpuh, \"cola de gato\", que corresponde a una planta que abundaba en los alrededores de las aguadas que antiguamente existían en la zona. Alcanzó su máximo desarrollo durante el periodo Clásico Tardío, entre el 600 y el 800 d.n.e., además, formó parte de la hegemonía de Río Bec, que se constituyó como un gran bloque peninsular con una identidad étnica y un estilo arquitectónico bien definidos. ","LINK":"http://nemachtilo.mx/busqueda.php?c=NEMXp4318"},"geometry":{"type":"Point","coordinates":[-89.406103,18.51058]}},{"type":"Feature","properties":{"NOMBRE":"Playa del Carmen","CULTURA":"Maya","DESCRIPCION":"El sitio de Playa del Carmen se localiza en el municipio de Solidaridad, en el estado de Quintana Roo. Esta ciudad maya era conocida durante la época Prehispánica como Xamanhá, “Agua del norte”. Se trataba de un gran asentamiento con construcciones de mampostería y plataformas para casas de madera, sus habitantes se dedicaron principalmente a la pesca y la agricultura.","LINK":"http://nemachtilo.mx/busqueda.php?c=NEMPl2318111"},"geometry":{"type":"Point","coordinates":[-87.082937,20.614288]}},{"type":"Feature","properties":{"NOMBRE":"Tulum","CULTURA":"Maya","DESCRIPCION":"Tulum es la zona arqueológica más sorprendente y conservada de toda la costa de Quintana Roo. Se ubica en un acantilado de cara al mar Caribe, está rodeada por una muralla que delimita al conjunto por sus lados norte, sur y oeste. A pesar de haberse encontrado evidencia de ocupación desde el año 564 d. n. e., se sabe que alcanzó su mayor desarrollo durante el periodo Posclásico Tardío, entre el 1300 y el 1550 d. n. e.","LINK":"http://nemachtilo.mx/busqueda.php?c=NEMTu2318122"},"geometry":{"type":"Point","coordinates":[-87.429157,20.214132]}},{"type":"Feature","properties":{"NOMBRE":"Xel há","CULTURA":"Maya","DESCRIPCION":"La zona arqueológica de Xelhá se localiza en el municipio de Solidaridad en el estado de Quintana Roo. Su nombre significa \"entrada de agua\", y hace alusión a la caleta donde se estableció dicha ciudad. Existen dos claros periodos de ocupación en Xelhá, marcados por la construcción de monumentos y edificios.","LINK":"http://nemachtilo.mx/busqueda.php?c=NEMXe2318113"},"geometry":{"type":"Point","coordinates":[-87.367138,20.318949]}},{"type":"Feature","properties":{"NOMBRE":"El Meco","CULTURA":"Maya","DESCRIPCION":"El sitio El Meco está ubicado en Isla Mujeres, municipio del estado de Quintana Roo, a unos ocho kilómetros al norte de Cancún. Este asentamiento fue de gran importancia ya que brindaba una posición estratégica para la navegación, la cual se desarrolló en gran parte gracias a la obtención y comercialización de sal, y su actividad pesquera.","LINK":"http://nemachtilo.mx/busqueda.php?c=NEMEl2318064"},"geometry":{"type":"Point","coordinates":[-86.80378,21.211073]}},{"type":"Feature","properties":{"NOMBRE":"Xcaret","CULTURA":"Maya","DESCRIPCION":"Xcaret fue un importante puerto comercial, además de ser punto de partida para las peregrinaciones a Cozumel, donde se adoraba a Ixchel, diosa de la Luna, y la fertilidad.","LINK":"http://nemachtilo.mx/busqueda.php?c=NEMXc2318045"},"geometry":{"type":"Point","coordinates":[-87.11943,20.578488]}},{"type":"Feature","properties":{"NOMBRE":"San Gervasio","CULTURA":"Maya Petén","DESCRIPCION":"Las investigaciones deducen que el asentamiento se fundó alrededor del año 300 d.C., y alcanzó su mayor desarrolló durante el Posclásico Tardío, entre el 1200 y el 1450 d.C., momento en el cual Chichén Itzá se erigió como el gran centro político y económico de la Península, motivo por el cual San Gervasio se integró a una red comercial intensa de la que formaban parte los sitios costeros del norte de Quintana Roo.","LINK":"http://nemachtilo.mx/busqueda.php?c=NEMSa2318046"},"geometry":{"type":"Point","coordinates":[-86.833266,20.484078]}},{"type":"Feature","properties":{"NOMBRE":"Kohunlich","CULTURA":"Maya","DESCRIPCION":"La zona arqueológica de Kohunlich se localiza en el municipio de Othón P. Blanco, es una de las más importantes en el sur del estado de Quintana Roo.  El sitio está constituido por varios conjuntos tanto habitacionales, administrativos y ceremoniales que se encuentran rodeados de tierras para cultivo.","LINK":"http://nemachtilo.mx/busqueda.php?c=NEMKo2318077"},"geometry":{"type":"Point","coordinates":[-88.790725,18.419544]}},{"type":"Feature","properties":{"NOMBRE":"Muyil","CULTURA":"Maya","DESCRIPCION":"En el Clásico Tardío fortaleció su relación con el interior de la Península de Yucatán y tuvo un importante crecimiento demográfico, este momento se relaciona con la construcción de varios de los edificios conservados hasta la actualidad.","LINK":"http://nemachtilo.mx/busqueda.php?c=NEMMu2318058"},"geometry":{"type":"Point","coordinates":[-87.61141,20.078753]}},{"type":"Feature","properties":{"NOMBRE":"Oxtankah","CULTURA":"Maya","DESCRIPCION":"Oxtankah se localiza en el municipio de Othón P. Blanco en el estado de Quintana Roo. Es la ciudad prehispánica más grande e importante de la bahía de Chetumal, los primeros asentamientos comenzaron entre el 600 y el 200 a. n. e., no obstante su ocupación se extendió hasta el año 1521.","LINK":"http://nemachtilo.mx/busqueda.php?c=NEMOx2318079"},"geometry":{"type":"Point","coordinates":[-88.231604,18.608375]}},{"type":"Feature","properties":{"NOMBRE":"Chakanbakan","CULTURA":"Maya, Olmeca","DESCRIPCION":"La ciudad maya de Chakanbakan se localiza en el municipio de Othón P. Blanco, en el estado de Quintana Roo. Se estima que la ocupación de este sitio comenzó en el Preclásico Tardío, entre el 300 y el 50 a. n. e., cuando llegaron los primeros habitantes, probablemente procedentes del Petén guatemalteco.","LINK":"http://nemachtilo.mx/busqueda.php?c=NEMCh23180710"},"geometry":{"type":"Point","coordinates":[-89.087176,18.453128]}},{"type":"Feature","properties":{"NOMBRE":"El Rey","CULTURA":"Maya","DESCRIPCION":"La zona arqueológica de El Rey es una de las más importantes de la isla de Cancún, cabecera del municipio Benito Juárez, en el estado de Quintana Roo. A pesar de su temprana ocupación, amplió su desarrollo a partir del Posclásico Temprano y alcanzó su esplendor durante el Posclásico Tardío, entre los años 1200 y 1550 d.n.e.","LINK":"http://nemachtilo.mx/busqueda.php?c=NEMEl23180811"},"geometry":{"type":"Point","coordinates":[-86.781474,21.06114]}},{"type":"Feature","properties":{"NOMBRE":"Caracol Punta Sur","CULTURA":"Maya","DESCRIPCION":"Su nombre hace alusión a uno de sus edificios más destacados, cuya cúpula fue decorada con cuatro hileras de caracoles naturales empotrados en estuco. Se cree que esta estructura construida durante el Posclásico, entre el 1200 y 1400 d. n. e. fue usada por los mayas como señal de aproximación de huracanes.","LINK":"http://nemachtilo.mx/busqueda.php?c=NEMCa23180412"},"geometry":{"type":"Point","coordinates":[-86.978504,20.280386]}},{"type":"Feature","properties":{"NOMBRE":"Cobá","CULTURA":"Maya","DESCRIPCION":"La zona arqueológica de Cobá se localiza en el sur del municipio de Solidaridad, en el estado de Quintana Roo. Las investigaciones señalan que los primeros asentamientos humanos se registraron a partir del Clásico Temprano, entre el 200 a. n. e. y el 300 d. n. e. Durante este periodo el sitio estaba conformado por un conjunto de aldeas situadas en la cercanía de cinco lagos. Su economía se basaba en la agricultura y la caza.","LINK":"http://nemachtilo.mx/busqueda.php?c=NEMCo23181113"},"geometry":{"type":"Point","coordinates":[-87.719788,20.493963]}},{"type":"Feature","properties":{"NOMBRE":"Chacchoben","CULTURA":"Maya Petén","DESCRIPCION":"El sitio de Chacchoben es el más grande y antiguo asentamiento de la llamada región de los lagos. Esta región fue muy importante para la cultura maya, debido a la ubicación geográfica, que actualmente corresponde a la zona fronteriza entre Guatemala, México y Belice.","LINK":"http://nemachtilo.mx/busqueda.php?c=NEMCh231807132"},"geometry":{"type":"Point","coordinates":[-88.171676,19.011091]}},{"type":"Feature","properties":{"NOMBRE":"Dzibanché","CULTURA":"Maya Petén","DESCRIPCION":"Dzibanché se caracteriza por haber desarrollado, en conjunto con el sitio de Kinichná, un estilo arquitectónico y un bagaje cultural característicos, que los distinguen de otros asentamientos cuyas manifestaciones culturales fueron contemporáneas. El nombre original de este sitio se desconoce, fue el arqueólogo Thomas Gann quien le asignó en 1927 el de Dzibanché, que significa \"escritura en madera\".","LINK":"http://nemachtilo.mx/busqueda.php?c=NEMDz231807141"},"geometry":{"type":"Point","coordinates":[-88.800296,18.536671]}},{"type":"Feature","properties":{"NOMBRE":"San Miguelito","CULTURA":"Maya","DESCRIPCION":"El sitio de San Miguelito se localiza en la zona hotelera de Cancún, en el municipio de Benito Juárez en el estado de Quintana Roo. Antes de la llegada de los españoles, este asentamiento formó parte del cacicazgo de Ecab, el cual tuvo como principales actividades económicas la pesca, la agricultura, la producción de sal, miel, copal y algodón, productos que se comercializaban a través de la red económica que rodeaba la Península de Yucatán.","LINK":"http://nemachtilo.mx/busqueda.php?c=NEMSa23180814"},"geometry":{"type":"Point","coordinates":[-86.778783,21.070812]}},{"type":"Feature","properties":{"NOMBRE":"Chichén Itzá","CULTURA":"Maya","DESCRIPCION":"Es uno de los sitios arqueológicos más importantes de la Península de Yucatán. Es la ciudad más impresionante del periodo Clásico maya y fue inscrita en la lista del Patrimonio de la Humanidad de la UNESCO.","LINK":"http://nemachtilo.mx/busqueda.php?c=NEMCh3123841"},"geometry":{"type":"Point","coordinates":[-88.568,20.683]}},{"type":"Feature","properties":{"NOMBRE":"Santa Elena","CULTURA":"Maya","DESCRIPCION":"Corresponde a un terreno de más de 13 mil metros cuadrados de extensión, en el cual fueron descubiertos tepalcates y piezas de piedra lítica tallada y pulida.","LINK":"http://nemachtilo.mx/busqueda.php?c=NEMSa31239722"},"geometry":{"type":"Point","coordinates":[-89.647899,20.332362]}},{"type":"Feature","properties":{"NOMBRE":"Ek Balam","CULTURA":"Maya Tolteca","DESCRIPCION":"Es una de las ciudades más sorprendentes y conservadas de la cultura maya, en los muros se de sus templos se conservan bellos ejemplares de su pintura mural, además de complejas esculturas hechas en estuco.","LINK":"http://nemachtilo.mx/busqueda.php?c=NEMEk31237847"},"geometry":{"type":"Point","coordinates":[-88.135834,20.890822]}},{"type":"Feature","properties":{"NOMBRE":"Kabah","CULTURA":"Maya","DESCRIPCION":"La ciudad conserva su nombre prehispánico, mencionado en el libro Chilam Balam de Chumayel, que significa \"mano poderosa\", probablemente porque a la entrada de la zona hay una escultura con un hombre sujetando una serpiente.","LINK":"http://nemachtilo.mx/busqueda.php?c=NEMKa3123593"},"geometry":{"type":"Point","coordinates":[-89.649,20.251]}},{"type":"Feature","properties":{"NOMBRE":"Mayapán","CULTURA":"Maya","DESCRIPCION":"Su nombre se traduce como \"La bandera de los mayas\", esta zona arqueológica es considerada la última gran capital de la cultura maya hasta antes de la llegada de los españoles.","LINK":"http://nemachtilo.mx/busqueda.php?c=NEMMa3123698"},"geometry":{"type":"Point","coordinates":[-89.460742,20.629856]}},{"type":"Feature","properties":{"NOMBRE":"Labná","CULTURA":"Maya","DESCRIPCION":"Compartió el control político y económico de la cordillera del Pucc con Uxmal, Sayil, Kabáh y Oxkintok. El estudio de la zona y el uso de sus edificios sugieren que este sitio concentró gran parte de las funciones religiosas y políticas.","LINK":"http://nemachtilo.mx/busqueda.php?c=NEMLa3123496"},"geometry":{"type":"Point","coordinates":[-89.578611,20.172222]}},{"type":"Feature","properties":{"NOMBRE":"Chacmultún","CULTURA":"Maya Puuc","DESCRIPCION":"Fue una de las principales ciudades agrícolas en el oriente de la región Puuc. La zona arqueológica está conformada por cuatro conjuntos arquitectónicos; Xetpol, Chacmultún, Cabalpak y Central. Algunos de sus edificios conservan bellos ejemplares de pintura mural maya.","LINK":"http://nemachtilo.mx/busqueda.php?c=NEMCh3123725"},"geometry":{"type":"Point","coordinates":[-89.386955,20.185282]}},{"type":"Feature","properties":{"NOMBRE":"Loltún","CULTURA":"Maya","DESCRIPCION":"La zona arqueológica de Loltún está ubicada en un extenso sistema cavernoso localizado en el sur de Yucatán, condición que dio al sitio el nombre de \"Flor de Piedra\".","LINK":"http://nemachtilo.mx/busqueda.php?c=NEMLo3123497"},"geometry":{"type":"Point","coordinates":[-89.455833,20.253333]}},{"type":"Feature","properties":{"NOMBRE":"Dzibilchaltún","CULTURA":"Maya","DESCRIPCION":"Llegó a ser una de las ciudades más grandes de la costa norte de la Península de Yucatán, se han hallado alrededor de ocho mil 400 estructuras y se estima que el sitio alcanzó una población de hasta 40 mil habitantes.","LINK":"http://nemachtilo.mx/busqueda.php?c=NEMDz31234312"},"geometry":{"type":"Point","coordinates":[-89.595044,21.090785]}},{"type":"Feature","properties":{"NOMBRE":"Oxkintok","CULTURA":"Maya Tolteca","DESCRIPCION":"Es uno de los principales asentamientos del norte de Yucatán, es considerada la ciudad más antigua de la región Pucc central. Controló el paso de productos comerciales provenientes del sur y mantuvo contacto con otras culturas contemporáneas y dominios como Chichén Itzá.","LINK":"http://nemachtilo.mx/busqueda.php?c=NEMOx3123414"},"geometry":{"type":"Point","coordinates":[-89.952852,20.561107]}},{"type":"Feature","properties":{"NOMBRE":"Izamal","CULTURA":"Maya","DESCRIPCION":"Izamal significa \"Rocío que cae del cielo\", fue nombrada así en honor a su fundador, un gran sacerdote maya llamado Zama. La pirámide El Kinich Kak Moo es la más grande de toda la Península.","LINK":"http://nemachtilo.mx/busqueda.php?c=NEMIz3123339"},"geometry":{"type":"Point","coordinates":[-89.01662,20.937166]}},{"type":"Feature","properties":{"NOMBRE":"Sayil","CULTURA":"Maya","DESCRIPCION":"Su edificación más importante es El Gran Palacio, que en su apogeo contó con 85 cámaras distribuidas en tres niveles. También destacan su Juego de Pelota, y El Mirador, uno de los edificios más antiguos y característicos de la región, coronado con su cresta calada.","LINK":"http://nemachtilo.mx/busqueda.php?c=NEMSa31235910"},"geometry":{"type":"Point","coordinates":[-89.651944,20.177778]}},{"type":"Feature","properties":{"NOMBRE":"Aké","CULTURA":"Maya","DESCRIPCION":"Esta antigua ciudad amurallada fue un importante punto intermedio entre el sitio de Izamal y la antigua ciudad de Thó (territorio donde se fundó la ciudad de Mérida).","LINK":"http://nemachtilo.mx/busqueda.php?c=NEMAk31238611"},"geometry":{"type":"Point","coordinates":[-89.301692,20.946955]}},{"type":"Feature","properties":{"NOMBRE":"Acanceh","CULTURA":"Maya Tolteca","DESCRIPCION":"La ciudad de Acanceh es llamada también \"La Ciudad de las Tres Culturas\" ya que en su plaza principal conviven edificios prehispánicos, coloniales y contemporáneos.","LINK":"http://nemachtilo.mx/busqueda.php?c=NEMAc31229555"},"geometry":{"type":"Point","coordinates":[-89.452459,20.813329]}},{"type":"Feature","properties":{"NOMBRE":"Balancanché","CULTURA":"Maya Tolteca","DESCRIPCION":"Este sitio fue utilizado por los pobladores cercanos para llevar a cabo ritos dedicados al dios maya de la lluvia, Chaak. Su nombre significa \"Asiento del balam\", siendo el balam el sacerdote que encabezaba la ceremonia.","LINK":"http://nemachtilo.mx/busqueda.php?c=NEMBa31233656"},"geometry":{"type":"Point","coordinates":[-88.491189,20.731699]}},{"type":"Feature","properties":{"NOMBRE":"Uxmal","CULTURA":"Maya Tolteca","DESCRIPCION":"Es una de las ciudades mayas más impresionantes, donde destaca su arquitectura monumental y la perfección geométrica de sus mosaicos. Su estructura más impactante es la Casa del Adivino, con una singular forma elíptica y más de 35 metros de altura.","LINK":"http://nemachtilo.mx/busqueda.php?c=NEMUx31235957"},"geometry":{"type":"Point","coordinates":[-89.769727,20.360815]}},{"type":"Feature","properties":{"NOMBRE":"Xcambó","CULTURA":"Maya Petén","DESCRIPCION":"En la época prehispánica fue un importante puerto comercial maya y durante la colonia fue imprescindible para conseguir la independencia de Yucatán.","LINK":"http://nemachtilo.mx/busqueda.php?c=NEMXc31237646"},"geometry":{"type":"Point","coordinates":[-89.353,21.315]}},{"type":"Feature","properties":{"NOMBRE":"Xlapak","CULTURA":"Maya","DESCRIPCION":"El sitio de Xlapak fue fundado en el año 200 a. n. e. en la región Pucc del norte de Yucatán, su nombre significa \"paredes viejas\". Está ubicada en una importante zona de producción agrícola, su población utilizó chuntunes, un tradicional sistemas de captación de agua pluvial, para regar sus cultivos de algodón; también se dedicó a la recolección de miel, cera y plumas.","LINK":"http://nemachtilo.mx/busqueda.php?c=NEMXl3123492"},"geometry":{"type":"Point","coordinates":[-89.606146,20.174201]}},{"type":"Feature","properties":{"NOMBRE":"El Vallecito","CULTURA":"","DESCRIPCION":"","LINK":""},"geometry":{"type":"Point","coordinates":[-116.088889,32.591943]}},{"type":"Feature","properties":{"NOMBRE":"Cuesta Palmarito","CULTURA":"","DESCRIPCION":"","LINK":""},"geometry":{"type":"Point","coordinates":[-112.961441,27.574754]}},{"type":"Feature","properties":{"NOMBRE":"Boca San Julio","CULTURA":"","DESCRIPCION":"","LINK":""},"geometry":{"type":"Point","coordinates":[-111.997217,26.89203]}},{"type":"Feature","properties":{"NOMBRE":"El Ratón","CULTURA":"","DESCRIPCION":"","LINK":""},"geometry":{"type":"Point","coordinates":[-113.023556,27.591057]}},{"type":"Feature","properties":{"NOMBRE":"La Música","CULTURA":"","DESCRIPCION":"","LINK":""},"geometry":{"type":"Point","coordinates":[-113.078106,27.647547]}},{"type":"Feature","properties":{"NOMBRE":"Las Flechas","CULTURA":"","DESCRIPCION":"","LINK":""},"geometry":{"type":"Point","coordinates":[-113.070599,27.634876]}},{"type":"Feature","properties":{"NOMBRE":"La Pintada","CULTURA":"","DESCRIPCION":"","LINK":""},"geometry":{"type":"Point","coordinates":[-113.06758,27.63582]}},{"type":"Feature","properties":{"NOMBRE":"La Soledad","CULTURA":"","DESCRIPCION":"","LINK":""},"geometry":{"type":"Point","coordinates":[-113.065615,27.637863]}},{"type":"Feature","properties":{"NOMBRE":"El Chanal","CULTURA":"","DESCRIPCION":"","LINK":""},"geometry":{"type":"Point","coordinates":[-103.733402,19.292983]}},{"type":"Feature","properties":{"NOMBRE":"La Campana","CULTURA":"","DESCRIPCION":"","LINK":""},"geometry":{"type":"Point","coordinates":[-103.726389,19.2675]}},{"type":"Feature","properties":{"NOMBRE":"Bonampak","CULTURA":"","DESCRIPCION":"","LINK":""},"geometry":{"type":"Point","coordinates":[-91.064801,16.703548]}},{"type":"Feature","properties":{"NOMBRE":"Toniná","CULTURA":"","DESCRIPCION":"","LINK":""},"geometry":{"type":"Point","coordinates":[-92.009306,16.901064]}},{"type":"Feature","properties":{"NOMBRE":"Chiapa de Corzo","CULTURA":"","DESCRIPCION":"","LINK":""},"geometry":{"type":"Point","coordinates":[-93.004154,16.705821]}},{"type":"Feature","properties":{"NOMBRE":"Lagartero","CULTURA":"","DESCRIPCION":"","LINK":""},"geometry":{"type":"Point","coordinates":[-91.883888,15.827222]}},{"type":"Feature","properties":{"NOMBRE":"Tenam Puente","CULTURA":"","DESCRIPCION":"","LINK":""},"geometry":{"type":"Point","coordinates":[-92.104882,16.141108]}},{"type":"Feature","properties":{"NOMBRE":"Izapa","CULTURA":"","DESCRIPCION":"","LINK":""},"geometry":{"type":"Point","coordinates":[-92.184531,14.912608]}},{"type":"Feature","properties":{"NOMBRE":"Yaxchilán","CULTURA":"","DESCRIPCION":"","LINK":""},"geometry":{"type":"Point","coordinates":[-90.96451,16.899878]}},{"type":"Feature","properties":{"NOMBRE":"Palenque","CULTURA":"","DESCRIPCION":"","LINK":""},"geometry":{"type":"Point","coordinates":[-92.046019,17.48402]}},{"type":"Feature","properties":{"NOMBRE":"Chinkultic","CULTURA":"","DESCRIPCION":"","LINK":""},"geometry":{"type":"Point","coordinates":[-91.784566,16.128018]}},{"type":"Feature","properties":{"NOMBRE":"Paquimé","CULTURA":"","DESCRIPCION":"","LINK":""},"geometry":{"type":"Point","coordinates":[-107.947784,30.366079]}},{"type":"Feature","properties":{"NOMBRE":"Cueva de la Olla","CULTURA":"","DESCRIPCION":"","LINK":""},"geometry":{"type":"Point","coordinates":[-108.31438,30.17871]}},{"type":"Feature","properties":{"NOMBRE":"Cuarenta Casas","CULTURA":"","DESCRIPCION":"","LINK":""},"geometry":{"type":"Point","coordinates":[-108.166368,29.555285]}},{"type":"Feature","properties":{"NOMBRE":"Huapoca","CULTURA":"","DESCRIPCION":"","LINK":""},"geometry":{"type":"Point","coordinates":[-108.329667,29.216954]}},{"type":"Feature","properties":{"NOMBRE":"Cueva Grande","CULTURA":"","DESCRIPCION":"","LINK":""},"geometry":{"type":"Point","coordinates":[-108.342219,29.188788]}},{"type":"Feature","properties":{"NOMBRE":"La Ferrería","CULTURA":"","DESCRIPCION":"","LINK":""},"geometry":{"type":"Point","coordinates":[-104.649167,23.960833]}},{"type":"Feature","properties":{"NOMBRE":"Plazuelas","CULTURA":"","DESCRIPCION":"","LINK":""},"geometry":{"type":"Point","coordinates":[-101.826394,20.404133]}},{"type":"Feature","properties":{"NOMBRE":"Peralta","CULTURA":"","DESCRIPCION":"","LINK":""},"geometry":{"type":"Point","coordinates":[-101.416414,20.471038]}},{"type":"Feature","properties":{"NOMBRE":"Cañada de  la Virgen","CULTURA":"","DESCRIPCION":"","LINK":""},"geometry":{"type":"Point","coordinates":[-100.928348,20.858175]}},{"type":"Feature","properties":{"NOMBRE":"Tehuacalco","CULTURA":"","DESCRIPCION":"","LINK":""},"geometry":{"type":"Point","coordinates":[-99.501575,17.186963]}},{"type":"Feature","properties":{"NOMBRE":"Huamuxtitlán","CULTURA":"","DESCRIPCION":"","LINK":""},"geometry":{"type":"Point","coordinates":[-98.565098,17.798215]}},{"type":"Feature","properties":{"NOMBRE":"Cuetlajuchitlán (Los Querende)","CULTURA":"","DESCRIPCION":"","LINK":""},"geometry":{"type":"Point","coordinates":[-99.210891,18.204478]}},{"type":"Feature","properties":{"NOMBRE":"Ixcateopan","CULTURA":"","DESCRIPCION":"","LINK":""},"geometry":{"type":"Point","coordinates":[-99.793333,18.497222]}},{"type":"Feature","properties":{"NOMBRE":"La Organera","CULTURA":"","DESCRIPCION":"","LINK":""},"geometry":{"type":"Point","coordinates":[-99.62,17.790556]}},{"type":"Feature","properties":{"NOMBRE":"Los Tepoltzis","CULTURA":"","DESCRIPCION":"","LINK":""},"geometry":{"type":"Point","coordinates":[-99.397249,17.600522]}},{"type":"Feature","properties":{"NOMBRE":"Teopantecuanitlán","CULTURA":"","DESCRIPCION":"","LINK":""},"geometry":{"type":"Point","coordinates":[-99.111389,17.902778]}},{"type":"Feature","properties":{"NOMBRE":"La Sabana","CULTURA":"","DESCRIPCION":"","LINK":""},"geometry":{"type":"Point","coordinates":[-99.817667,16.866918]}},{"type":"Feature","properties":{"NOMBRE":"Palma Sola","CULTURA":"","DESCRIPCION":"","LINK":""},"geometry":{"type":"Point","coordinates":[-99.900383,16.890073]}},{"type":"Feature","properties":{"NOMBRE":"Huapalcalco","CULTURA":"","DESCRIPCION":"","LINK":""},"geometry":{"type":"Point","coordinates":[-98.362875,20.11543]}},{"type":"Feature","properties":{"NOMBRE":"Tula","CULTURA":"","DESCRIPCION":"","LINK":""},"geometry":{"type":"Point","coordinates":[-99.340849,20.063875]}},{"type":"Feature","properties":{"NOMBRE":"El Xihuingo Tepeapulco","CULTURA":"","DESCRIPCION":"","LINK":""},"geometry":{"type":"Point","coordinates":[-98.538975,19.813747]}},{"type":"Feature","properties":{"NOMBRE":"Teuchitlán","CULTURA":"","DESCRIPCION":"","LINK":""},"geometry":{"type":"Point","coordinates":[-103.825526,20.69765]}},{"type":"Feature","properties":{"NOMBRE":"El Grillo","CULTURA":"","DESCRIPCION":"","LINK":""},"geometry":{"type":"Point","coordinates":[-103.369741,20.73329]}},{"type":"Feature","properties":{"NOMBRE":"Ixtépete","CULTURA":"","DESCRIPCION":"","LINK":""},"geometry":{"type":"Point","coordinates":[-103.440572,20.632286]}},{"type":"Feature","properties":{"NOMBRE":"Calixtlahuaca","CULTURA":"","DESCRIPCION":"","LINK":""},"geometry":{"type":"Point","coordinates":[-99.692988,19.333743]}},{"type":"Feature","properties":{"NOMBRE":"Acozac o Iztapaluca","CULTURA":"","DESCRIPCION":"","LINK":""},"geometry":{"type":"Point","coordinates":[-98.892174,19.329201]}},{"type":"Feature","properties":{"NOMBRE":"Huamango","CULTURA":"","DESCRIPCION":"","LINK":""},"geometry":{"type":"Point","coordinates":[-99.865956,19.978458]}},{"type":"Feature","properties":{"NOMBRE":"El Conde","CULTURA":"","DESCRIPCION":"","LINK":""},"geometry":{"type":"Point","coordinates":[-99.230772,19.470447]}},{"type":"Feature","properties":{"NOMBRE":"Teotenango","CULTURA":"","DESCRIPCION":"","LINK":""},"geometry":{"type":"Point","coordinates":[-99.598042,19.109083]}},{"type":"Feature","properties":{"NOMBRE":"Santa Cecilia Acatitla","CULTURA":"","DESCRIPCION":"","LINK":""},"geometry":{"type":"Point","coordinates":[-99.173452,19.55268]}},{"type":"Feature","properties":{"NOMBRE":"Tlapacoya","CULTURA":"","DESCRIPCION":"","LINK":""},"geometry":{"type":"Point","coordinates":[-98.91288,19.301838]}},{"type":"Feature","properties":{"NOMBRE":"Malinalco","CULTURA":"","DESCRIPCION":"","LINK":""},"geometry":{"type":"Point","coordinates":[-99.502989,18.953073]}},{"type":"Feature","properties":{"NOMBRE":"Huexotla","CULTURA":"","DESCRIPCION":"","LINK":""},"geometry":{"type":"Point","coordinates":[-98.8725,19.476122]}},{"type":"Feature","properties":{"NOMBRE":"Ocoyoacac","CULTURA":"","DESCRIPCION":"","LINK":""},"geometry":{"type":"Point","coordinates":[-99.471886,19.282537]}},{"type":"Feature","properties":{"NOMBRE":"Chimalhuacán","CULTURA":"","DESCRIPCION":"","LINK":""},"geometry":{"type":"Point","coordinates":[-98.947174,19.418213]}},{"type":"Feature","properties":{"NOMBRE":"Los Melones","CULTURA":"","DESCRIPCION":"","LINK":""},"geometry":{"type":"Point","coordinates":[-98.881347,19.508781]}},{"type":"Feature","properties":{"NOMBRE":"Los Reyes la Paz","CULTURA":"","DESCRIPCION":"","LINK":""},"geometry":{"type":"Point","coordinates":[-98.983573,19.352497]}},{"type":"Feature","properties":{"NOMBRE":"Tenayuca I","CULTURA":"","DESCRIPCION":"","LINK":""},"geometry":{"type":"Point","coordinates":[-99.168611,19.532222]}},{"type":"Feature","properties":{"NOMBRE":"Tenayuca II","CULTURA":"","DESCRIPCION":"","LINK":""},"geometry":{"type":"Point","coordinates":[-99.169283,19.5351]}},{"type":"Feature","properties":{"NOMBRE":"Tetzcotzinco","CULTURA":"","DESCRIPCION":"","LINK":""},"geometry":{"type":"Point","coordinates":[-98.817934,19.497362]}},{"type":"Feature","properties":{"NOMBRE":"San Miguel Ixtapan","CULTURA":"","DESCRIPCION":"","LINK":""},"geometry":{"type":"Point","coordinates":[-100.154889,18.806608]}},{"type":"Feature","properties":{"NOMBRE":"Teotihuacán La Ventilla","CULTURA":"","DESCRIPCION":"","LINK":""},"geometry":{"type":"Point","coordinates":[-98.854892,19.681406]}},{"type":"Feature","properties":{"NOMBRE":"Teotihuacán Tetitla","CULTURA":"","DESCRIPCION":"","LINK":""},"geometry":{"type":"Point","coordinates":[-98.853801,19.688546]}},{"type":"Feature","properties":{"NOMBRE":"Teotihuacán Atetelco","CULTURA":"","DESCRIPCION":"","LINK":""},"geometry":{"type":"Point","coordinates":[-98.857329,19.68959]}},{"type":"Feature","properties":{"NOMBRE":"Teotihuacán Tepantitla","CULTURA":"","DESCRIPCION":"","LINK":""},"geometry":{"type":"Point","coordinates":[-98.838019,19.693553]}},{"type":"Feature","properties":{"NOMBRE":"Tepexpan","CULTURA":"","DESCRIPCION":"","LINK":""},"geometry":{"type":"Point","coordinates":[-98.947626,19.613852]}},{"type":"Feature","properties":{"NOMBRE":"Tocuila","CULTURA":"","DESCRIPCION":"","LINK":""},"geometry":{"type":"Point","coordinates":[-98.907972,19.520581]}},{"type":"Feature","properties":{"NOMBRE":"Teotihuacán","CULTURA":"","DESCRIPCION":"","LINK":""},"geometry":{"type":"Point","coordinates":[-98.846989,19.688631]}},{"type":"Feature","properties":{"NOMBRE":"Tingambato","CULTURA":"","DESCRIPCION":"","LINK":""},"geometry":{"type":"Point","coordinates":[-101.858743,19.494581]}},{"type":"Feature","properties":{"NOMBRE":"Ihuatzio","CULTURA":"","DESCRIPCION":"","LINK":""},"geometry":{"type":"Point","coordinates":[-101.621597,19.575163]}},{"type":"Feature","properties":{"NOMBRE":"Tzintzuntzan","CULTURA":"","DESCRIPCION":"","LINK":""},"geometry":{"type":"Point","coordinates":[-101.573604,19.623814]}},{"type":"Feature","properties":{"NOMBRE":"Tres Cerritos","CULTURA":"","DESCRIPCION":"","LINK":""},"geometry":{"type":"Point","coordinates":[-101.103161,19.95907]}},{"type":"Feature","properties":{"NOMBRE":"Huandacareo","CULTURA":"","DESCRIPCION":"","LINK":""},"geometry":{"type":"Point","coordinates":[-101.279091,19.996422]}},{"type":"Feature","properties":{"NOMBRE":"San Felipe los Alzati","CULTURA":"","DESCRIPCION":"","LINK":""},"geometry":{"type":"Point","coordinates":[-100.391605,19.505938]}},{"type":"Feature","properties":{"NOMBRE":"Coatetelco","CULTURA":"","DESCRIPCION":"","LINK":""},"geometry":{"type":"Point","coordinates":[-99.326355,18.726726]}},{"type":"Feature","properties":{"NOMBRE":"Xochicalco","CULTURA":"","DESCRIPCION":"","LINK":""},"geometry":{"type":"Point","coordinates":[-99.296567,18.803857]}},{"type":"Feature","properties":{"NOMBRE":"Las Pilas","CULTURA":"","DESCRIPCION":"","LINK":""},"geometry":{"type":"Point","coordinates":[-98.799897,18.687605]}},{"type":"Feature","properties":{"NOMBRE":"Olintepec","CULTURA":"","DESCRIPCION":"","LINK":""},"geometry":{"type":"Point","coordinates":[-98.984883,18.741285]}},{"type":"Feature","properties":{"NOMBRE":"Teopanzolco","CULTURA":"","DESCRIPCION":"","LINK":""},"geometry":{"type":"Point","coordinates":[-99.222146,18.930416]}},{"type":"Feature","properties":{"NOMBRE":"Yautepec","CULTURA":"","DESCRIPCION":"","LINK":""},"geometry":{"type":"Point","coordinates":[-99.152021,18.64573]}},{"type":"Feature","properties":{"NOMBRE":"Tepozteco","CULTURA":"","DESCRIPCION":"","LINK":""},"geometry":{"type":"Point","coordinates":[-99.101184,19.000896]}},{"type":"Feature","properties":{"NOMBRE":"Chalcatzingo","CULTURA":"","DESCRIPCION":"","LINK":""},"geometry":{"type":"Point","coordinates":[-98.770343,18.677285]}},{"type":"Feature","properties":{"NOMBRE":"Ixtlán del Río","CULTURA":"","DESCRIPCION":"","LINK":""},"geometry":{"type":"Point","coordinates":[-104.344815,21.03976]}},{"type":"Feature","properties":{"NOMBRE":"Boca de Potrerillos","CULTURA":"","DESCRIPCION":"","LINK":""},"geometry":{"type":"Point","coordinates":[-100.645162,26.043716]}},{"type":"Feature","properties":{"NOMBRE":"Lambityeco","CULTURA":"","DESCRIPCION":"","LINK":""},"geometry":{"type":"Point","coordinates":[-96.491965,16.971853]}},{"type":"Feature","properties":{"NOMBRE":"Huijazoo","CULTURA":"","DESCRIPCION":"","LINK":""},"geometry":{"type":"Point","coordinates":[-96.878395,17.270464]}},{"type":"Feature","properties":{"NOMBRE":"Bocana Copalita","CULTURA":"","DESCRIPCION":"","LINK":""},"geometry":{"type":"Point","coordinates":[-96.05398,15.789549]}},{"type":"Feature","properties":{"NOMBRE":"Dainzú","CULTURA":"","DESCRIPCION":"","LINK":""},"geometry":{"type":"Point","coordinates":[-96.55672,17.003599]}},{"type":"Feature","properties":{"NOMBRE":"Huamelulpan","CULTURA":"","DESCRIPCION":"","LINK":""},"geometry":{"type":"Point","coordinates":[-97.601389,17.397222]}},{"type":"Feature","properties":{"NOMBRE":"Zaachila","CULTURA":"","DESCRIPCION":"","LINK":""},"geometry":{"type":"Point","coordinates":[-96.748961,16.952183]}},{"type":"Feature","properties":{"NOMBRE":"Yagul","CULTURA":"","DESCRIPCION":"","LINK":""},"geometry":{"type":"Point","coordinates":[-96.449726,16.958041]}},{"type":"Feature","properties":{"NOMBRE":"Monte Albán","CULTURA":"","DESCRIPCION":"","LINK":""},"geometry":{"type":"Point","coordinates":[-96.768049,17.04438]}},{"type":"Feature","properties":{"NOMBRE":"Mitla","CULTURA":"","DESCRIPCION":"","LINK":""},"geometry":{"type":"Point","coordinates":[-96.359177,16.927196]}},{"type":"Feature","properties":{"NOMBRE":"Guiengola","CULTURA":"","DESCRIPCION":"","LINK":""},"geometry":{"type":"Point","coordinates":[-95.323132,16.385943]}},{"type":"Feature","properties":{"NOMBRE":"Cholula","CULTURA":"","DESCRIPCION":"","LINK":""},"geometry":{"type":"Point","coordinates":[-98.482472,19.074572]}},{"type":"Feature","properties":{"NOMBRE":"Tepapayeca","CULTURA":"","DESCRIPCION":"","LINK":""},"geometry":{"type":"Point","coordinates":[-98.529745,18.673172]}},{"type":"Feature","properties":{"NOMBRE":"Tepexi el Viejo","CULTURA":"","DESCRIPCION":"","LINK":""},"geometry":{"type":"Point","coordinates":[-97.983344,18.597955]}},{"type":"Feature","properties":{"NOMBRE":"San Cristóbal Tepatlaxco","CULTURA":"","DESCRIPCION":"","LINK":""},"geometry":{"type":"Point","coordinates":[-98.44538,19.314146]}},{"type":"Feature","properties":{"NOMBRE":"Cantoná","CULTURA":"","DESCRIPCION":"","LINK":""},"geometry":{"type":"Point","coordinates":[-97.487816,19.552058]}},{"type":"Feature","properties":{"NOMBRE":"Yohualichan","CULTURA":"","DESCRIPCION":"","LINK":""},"geometry":{"type":"Point","coordinates":[-97.503417,20.06178]}},{"type":"Feature","properties":{"NOMBRE":"El Cerrito","CULTURA":"","DESCRIPCION":"","LINK":""},"geometry":{"type":"Point","coordinates":[-100.443961,20.551317]}},{"type":"Feature","properties":{"NOMBRE":"Toluquilla","CULTURA":"","DESCRIPCION":"","LINK":""},"geometry":{"type":"Point","coordinates":[-99.530795,20.882857]}},{"type":"Feature","properties":{"NOMBRE":"Las Ranas","CULTURA":"","DESCRIPCION":"","LINK":""},"geometry":{"type":"Point","coordinates":[-99.563127,20.925996]}},{"type":"Feature","properties":{"NOMBRE":"Tancama","CULTURA":"","DESCRIPCION":"","LINK":""},"geometry":{"type":"Point","coordinates":[-99.396003,21.160273]}},{"type":"Feature","properties":{"NOMBRE":"Tamohí","CULTURA":"","DESCRIPCION":"","LINK":""},"geometry":{"type":"Point","coordinates":[-98.749571,21.95298]}},{"type":"Feature","properties":{"NOMBRE":"Tamtok","CULTURA":"","DESCRIPCION":"","LINK":""},"geometry":{"type":"Point","coordinates":[-98.813063,21.923879]}},{"type":"Feature","properties":{"NOMBRE":"La Venta","CULTURA":"","DESCRIPCION":"","LINK":""},"geometry":{"type":"Point","coordinates":[-94.040111,18.102751]}},{"type":"Feature","properties":{"NOMBRE":"Pomona","CULTURA":"","DESCRIPCION":"","LINK":""},"geometry":{"type":"Point","coordinates":[-91.570774,17.484189]}},{"type":"Feature","properties":{"NOMBRE":"Comalcalco","CULTURA":"","DESCRIPCION":"","LINK":""},"geometry":{"type":"Point","coordinates":[-93.200565,18.279147]}},{"type":"Feature","properties":{"NOMBRE":"Moral Reforma","CULTURA":"","DESCRIPCION":"","LINK":""},"geometry":{"type":"Point","coordinates":[-91.296472,17.767922]}},{"type":"Feature","properties":{"NOMBRE":"Malpasito","CULTURA":"","DESCRIPCION":"","LINK":""},"geometry":{"type":"Point","coordinates":[-93.590983,17.344772]}},{"type":"Feature","properties":{"NOMBRE":"El Sabinito","CULTURA":"","DESCRIPCION":"","LINK":""},"geometry":{"type":"Point","coordinates":[-98.40722,23.636415]}},{"type":"Feature","properties":{"NOMBRE":"Balcón de Moctezuma","CULTURA":"","DESCRIPCION":"","LINK":""},"geometry":{"type":"Point","coordinates":[-99.177045,23.590328]}},{"type":"Feature","properties":{"NOMBRE":"Las Flores","CULTURA":"","DESCRIPCION":"","LINK":""},"geometry":{"type":"Point","coordinates":[-97.876354,22.249569]}},{"type":"Feature","properties":{"NOMBRE":"Xochitécatl","CULTURA":"","DESCRIPCION":"","LINK":""},"geometry":{"type":"Point","coordinates":[-98.349587,19.245326]}},{"type":"Feature","properties":{"NOMBRE":"Cacaxtla","CULTURA":"","DESCRIPCION":"","LINK":""},"geometry":{"type":"Point","coordinates":[-98.339722,19.244167]}},{"type":"Feature","properties":{"NOMBRE":"Ocotelulco","CULTURA":"","DESCRIPCION":"","LINK":""},"geometry":{"type":"Point","coordinates":[-98.233417,19.331968]}},{"type":"Feature","properties":{"NOMBRE":"Tizatlán","CULTURA":"","DESCRIPCION":"","LINK":""},"geometry":{"type":"Point","coordinates":[-98.218056,19.337778]}},{"type":"Feature","properties":{"NOMBRE":"Tecoaque","CULTURA":"","DESCRIPCION":"","LINK":""},"geometry":{"type":"Point","coordinates":[-98.624219,19.58484]}},{"type":"Feature","properties":{"NOMBRE":"Las Higueras","CULTURA":"","DESCRIPCION":"","LINK":""},"geometry":{"type":"Point","coordinates":[-96.62354,20.03525]}},{"type":"Feature","properties":{"NOMBRE":"Castillo de Teayo","CULTURA":"","DESCRIPCION":"","LINK":""},"geometry":{"type":"Point","coordinates":[-97.633246,20.750108]}},{"type":"Feature","properties":{"NOMBRE":"El Tajín","CULTURA":"","DESCRIPCION":"","LINK":""},"geometry":{"type":"Point","coordinates":[-97.377492,20.447225]}},{"type":"Feature","properties":{"NOMBRE":"Cuyuxquihui","CULTURA":"","DESCRIPCION":"","LINK":""},"geometry":{"type":"Point","coordinates":[-97.256021,20.309755]}},{"type":"Feature","properties":{"NOMBRE":"Vega de la Peña","CULTURA":"","DESCRIPCION":"","LINK":""},"geometry":{"type":"Point","coordinates":[-97.149053,19.963625]}},{"type":"Feature","properties":{"NOMBRE":"Cuajilote","CULTURA":"","DESCRIPCION":"","LINK":""},"geometry":{"type":"Point","coordinates":[-97.136843,19.939394]}},{"type":"Feature","properties":{"NOMBRE":"Quiahuiztlan","CULTURA":"","DESCRIPCION":"","LINK":""},"geometry":{"type":"Point","coordinates":[-96.412997,19.668737]}},{"type":"Feature","properties":{"NOMBRE":"Cempoala","CULTURA":"","DESCRIPCION":"","LINK":""},"geometry":{"type":"Point","coordinates":[-96.403331,19.446933]}},{"type":"Feature","properties":{"NOMBRE":"Tres Zapotes","CULTURA":"","DESCRIPCION":"","LINK":""},"geometry":{"type":"Point","coordinates":[-95.440104,18.465843]}},{"type":"Feature","properties":{"NOMBRE":"San Lorenzo Tenochtitlán","CULTURA":"","DESCRIPCION":"","LINK":""},"geometry":{"type":"Point","coordinates":[-94.759625,17.753982]}},{"type":"Feature","properties":{"NOMBRE":"Altavista, Chalchihuites","CULTURA":"","DESCRIPCION":"","LINK":""},"geometry":{"type":"Point","coordinates":[-103.880278,23.474444]}},{"type":"Feature","properties":{"NOMBRE":"La Quemada","CULTURA":"","DESCRIPCION":"","LINK":""},"geometry":{"type":"Point","coordinates":[-102.821389,22.456389]}},{"type":"Feature","properties":{"NOMBRE":"Las Ventanas","CULTURA":"","DESCRIPCION":"","LINK":""},"geometry":{"type":"Point","coordinates":[-103.135535,21.371412]}}]}